Location,Latitude,Longitude
Delhi,28.7041,77.1025
Mumbai,19.0760,72.8777
Chennai,13.0827,80.2707
Kolkata,22.5726,88.3639
Hyderabad,17.3850,78.4867
Bangalore,12.9716,77.5946
Ahmedabad,23.0225,72.5714
Pune,18.5204,73.8567
Jaipur,26.9124,75.7873
Lucknow,26.8467,80.9462